Name,lon,lat
Lolab Valley,74.09,34.41
Cambodia,104.991,12.5657
Hindu Kush,73.2633,36.8922
Hunza Valley,74.65,36.3167
India,78.9629,20.5937
Burma,95.956,21.9162
Pakistan,69.3451,30.3753
Wailing Valley Malana,77.1538,32.0346
NW Balochistan ,65.0958,28.4907
Chintal ,17.3222,79.521